{
"type": "FeatureCollection",
"crs": { "type": "name", "properties": { "name": "urn:ogc:def:crs:OGC:1.3:CRS84" } },
                                                                                
"features": [
{ "type": "Feature", "properties": { "OBJECTID_1": 1, "OBJECTID": 12, "ROUTE": "31", "STOP_NUMBE": null, "STREET": "18 ST N", "STOP_DESCR": "NDSU RESEARCH PARK DR", "DISTANCE_B": "0.072", "TIME_STOP": "N", "COMMENTS": "SHELTER ON AERIAL\/PICTOMETRY", "TRANSFER_P": "N", "SHELTER": "Y", "ROUTESTOPN": "31-12", "CITY": "FARGO" }, "geometry": { "type": "Point", "coordinates": [ -96.808659230644906, 46.903621884207993 ] } },
{ "type": "Feature", "properties": { "OBJECTID_1": 2, "OBJECTID": 72, "ROUTE": "13", "STOP_NUMBE": null, "STREET": "UNIVERSITY DR N", "STOP_DESCR": "NDSU NISKANEN SHELTER", "DISTANCE_B": "0.142", "TIME_STOP": "Y", "COMMENTS": "SHELTER ON PICTOMETRY", "TRANSFER_P": "N", "SHELTER": "Y", "ROUTESTOPN": "34-14", "CITY": "FARGO" }, "geometry": { "type": "Point", "coordinates": [ -96.797887802082499, 46.902935157540682 ] } },
{ "type": "Feature", "properties": { "OBJECTID_1": 3, "OBJECTID": 74, "ROUTE": "13", "STOP_NUMBE": null, "STREET": "UNIVERSITY DR N", "STOP_DESCR": "15 AVE N NDSU BISON COURT SHELTER", "DISTANCE_B": "0.166", "TIME_STOP": "N", "COMMENTS": "SHELTER ON PICTOMETRY", "TRANSFER_P": "N", "SHELTER": "Y", "ROUTESTOPN": "34-16", "CITY": "FARGO" }, "geometry": { "type": "Point", "coordinates": [ -96.798222259669984, 46.897073034915358 ] } },
{ "type": "Feature", "properties": { "OBJECTID_1": 4, "OBJECTID": 76, "ROUTE": "13", "STOP_NUMBE": null, "STREET": "UNIVERSITY DR N", "STOP_DESCR": "CENTENNIAL BLVD N SHELTER", "DISTANCE_B": "0.083", "TIME_STOP": "N", "COMMENTS": "SHELTER ON PICTOMETRY", "TRANSFER_P": "N", "SHELTER": "Y", "ROUTESTOPN": "34-18", "CITY": "FARGO" }, "geometry": { "type": "Point", "coordinates": [ -96.798246885732752, 46.894444571406147 ] } },
{ "type": "Feature", "properties": { "OBJECTID_1": 5, "OBJECTID": 99, "ROUTE": "32", "STOP_NUMBE": null, "STREET": "ALBRECHT BLVD N", "STOP_DESCR": "NDSU PAY LOT SHELTER", "DISTANCE_B": "0.093", "TIME_STOP": "Y", "COMMENTS": null, "TRANSFER_P": "N", "SHELTER": "Y", "ROUTESTOPN": "35-20", "CITY": "FARGO" }, "geometry": { "type": "Point", "coordinates": [ -96.802597418141687, 46.895306554335008 ] } },
{ "type": "Feature", "properties": { "OBJECTID_1": 6, "OBJECTID": 108, "ROUTE": "13", "STOP_NUMBE": null, "STREET": "12 AVE N", "STOP_DESCR": "14 ST N NDSU LIBRARY SHELTER", "DISTANCE_B": "0", "TIME_STOP": "Y", "COMMENTS": "SHLETER ON PICTOMETRY", "TRANSFER_P": "N", "SHELTER": "Y", "ROUTESTOPN": "35-29", "CITY": "FARGO" }, "geometry": { "type": "Point", "coordinates": [ -96.801327222261023, 46.89031167318285 ] } },
{ "type": "Feature", "properties": { "OBJECTID_1": 7, "OBJECTID": 110, "ROUTE": "4", "STOP_NUMBE": null, "STREET": "CENTER AVE", "STOP_DESCR": "US BANK SHELTER", "DISTANCE_B": "0.557", "TIME_STOP": "Y", "COMMENTS": "SHLETER ON PICTOMETRY", "TRANSFER_P": "N", "SHELTER": "Y", "ROUTESTOPN": "1-2", "CITY": "MOORHEAD" }, "geometry": { "type": "Point", "coordinates": [ -96.773225881147468, 46.874963944231375 ] } },
{ "type": "Feature", "properties": { "OBJECTID_1": 8, "OBJECTID": 115, "ROUTE": "1", "STOP_NUMBE": null, "STREET": "8 ST S", "STOP_DESCR": "CONCORDIA SHELTER", "DISTANCE_B": "0.139", "TIME_STOP": "Y", "COMMENTS": "SHELTER ON AERIAL\/PICTOMETRY", "TRANSFER_P": "N", "SHELTER": "Y", "ROUTESTOPN": "1-7", "CITY": "MOORHEAD" }, "geometry": { "type": "Point", "coordinates": [ -96.768270119602491, 46.863176885507031 ] } },
{ "type": "Feature", "properties": { "OBJECTID_1": 9, "OBJECTID": 125, "ROUTE": "1", "STOP_NUMBE": null, "STREET": "24 AVE S", "STOP_DESCR": "RIVERSHORE DR SHELTER", "DISTANCE_B": "0.122", "TIME_STOP": "N", "COMMENTS": "SHELTER ON AERIAL\/PICTOMETRY", "TRANSFER_P": "N", "SHELTER": "Y", "ROUTESTOPN": "1-17", "CITY": "MOORHEAD" }, "geometry": { "type": "Point", "coordinates": [ -96.771276925610479, 46.851468199739195 ] } },
{ "type": "Feature", "properties": { "OBJECTID_1": 10, "OBJECTID": 134, "ROUTE": "1", "STOP_NUMBE": null, "STREET": "5 ST S", "STOP_DESCR": "2 AVE S", "DISTANCE_B": "0.161", "TIME_STOP": "N", "COMMENTS": "SHELTER ON AERIAL", "TRANSFER_P": "N", "SHELTER": "Y", "ROUTESTOPN": "1-26", "CITY": "MOORHEAD" }, "geometry": { "type": "Point", "coordinates": [ -96.772313345521255, 46.872563739294456 ] } },
{ "type": "Feature", "properties": { "OBJECTID_1": 11, "OBJECTID": 135, "ROUTE": "4", "STOP_NUMBE": null, "STREET": "CENTER AVE", "STOP_DESCR": "5 ST S MOORHEAD CENTER MALL SHELTER", "DISTANCE_B": "0.827", "TIME_STOP": "Y", "COMMENTS": "SHELTER ON AERIAL", "TRANSFER_P": "N", "SHELTER": "Y", "ROUTESTOPN": "1-27", "CITY": "MOORHEAD" }, "geometry": { "type": "Point", "coordinates": [ -96.772912595911293, 46.875132915678144 ] } },
{ "type": "Feature", "properties": { "OBJECTID_1": 12, "OBJECTID": 141, "ROUTE": "2", "STOP_NUMBE": null, "STREET": "11 ST S", "STOP_DESCR": "2 AVE S HORNBACHERS SHELTER", "DISTANCE_B": "0.141", "TIME_STOP": "Y", "COMMENTS": "SHELTER ON AERIAL", "TRANSFER_P": "N", "SHELTER": "Y", "ROUTESTOPN": "2-5", "CITY": "MOORHEAD" }, "geometry": { "type": "Point", "coordinates": [ -96.762874188252525, 46.87284209756865 ] } },
{ "type": "Feature", "properties": { "OBJECTID_1": 13, "OBJECTID": 149, "ROUTE": "1", "STOP_NUMBE": null, "STREET": "11 ST S", "STOP_DESCR": "28 AVE S MARRIOT SHELTER", "DISTANCE_B": "0.249", "TIME_STOP": "N", "COMMENTS": "SHELTER ON AERIAL FURTHER NORTH", "TRANSFER_P": "N", "SHELTER": "Y", "ROUTESTOPN": "2-13", "CITY": "MOORHEAD" }, "geometry": { "type": "Point", "coordinates": [ -96.762942947259333, 46.848239823179995 ] } },
{ "type": "Feature", "properties": { "OBJECTID_1": 14, "OBJECTID": 205, "ROUTE": "23", "STOP_NUMBE": null, "STREET": "53 AVE S", "STOP_DESCR": "38 ST S WALMART SHELTER", "DISTANCE_B": "0.657", "TIME_STOP": "Y", "COMMENTS": null, "TRANSFER_P": "N", "SHELTER": "Y", "ROUTESTOPN": "23-21", "CITY": "FARGO" }, "geometry": { "type": "Point", "coordinates": [ -96.843190928629468, 46.802680684778352 ] } },
{ "type": "Feature", "properties": { "OBJECTID_1": 15, "OBJECTID": 292, "ROUTE": "3", "STOP_NUMBE": null, "STREET": "US 10 FRONTAGE RD", "STOP_DESCR": "TARGET SHELTER", "DISTANCE_B": "0.115", "TIME_STOP": "Y", "COMMENTS": "VERIFIED SHELTER ON GOOGLE STREET VIEW", "TRANSFER_P": "Y", "SHELTER": "Y", "ROUTESTOPN": "3-30", "CITY": "MOORHEAD" }, "geometry": { "type": "Point", "coordinates": [ -96.728149624973824, 46.876178202608635 ] } },
{ "type": "Feature", "properties": { "OBJECTID_1": 16, "OBJECTID": 303, "ROUTE": "3", "STOP_NUMBE": null, "STREET": "20 ST S", "STOP_DESCR": "18 AVE S SHELTER", "DISTANCE_B": "0.128", "TIME_STOP": "N", "COMMENTS": null, "TRANSFER_P": "N", "SHELTER": "Y", "ROUTESTOPN": "3-43", "CITY": "MOORHEAD" }, "geometry": { "type": "Point", "coordinates": [ -96.747892405422775, 46.857025620192111 ] } },
{ "type": "Feature", "properties": { "OBJECTID_1": 17, "OBJECTID": 327, "ROUTE": "13", "STOP_NUMBE": null, "STREET": "UNIVERSITY DR N", "STOP_DESCR": "7 AVE N SUNMART SHELTER", "DISTANCE_B": "0.186", "TIME_STOP": "N", "COMMENTS": "SHELTER ON AERIAL NOT MENTIONED ON TIME SHEETS", "TRANSFER_P": "N", "SHELTER": "Y", "ROUTESTOPN": "13B-11", "CITY": "FARGO" }, "geometry": { "type": "Point", "coordinates": [ -96.798277842753976, 46.883348095245395 ] } },
{ "type": "Feature", "properties": { "OBJECTID_1": 18, "OBJECTID": 353, "ROUTE": "13", "STOP_NUMBE": null, "STREET": "10 ST N", "STOP_DESCR": "17 AVE N COLISEUM\/CURLING CLUB SHELTER", "DISTANCE_B": "0.585", "TIME_STOP": "N", "COMMENTS": null, "TRANSFER_P": "N", "SHELTER": "Y", "ROUTESTOPN": "13B-37", "CITY": "FARGO" }, "geometry": { "type": "Point", "coordinates": [ -96.793439504404745, 46.901375713414318 ] } },
{ "type": "Feature", "properties": { "OBJECTID_1": 19, "OBJECTID": 391, "ROUTE": "13", "STOP_NUMBE": null, "STREET": "10 ST N", "STOP_DESCR": "12 AVE N SHELTER", "DISTANCE_B": "0.165", "TIME_STOP": "N", "COMMENTS": "SHELTER ON PICTOMETRY", "TRANSFER_P": "N", "SHELTER": "Y", "ROUTESTOPN": "33-30", "CITY": "FARGO" }, "geometry": { "type": "Point", "coordinates": [ -96.793637485422082, 46.89069522633276 ] } },
{ "type": "Feature", "properties": { "OBJECTID_1": 20, "OBJECTID": 435, "ROUTE": "17", "STOP_NUMBE": null, "STREET": "32 ST N", "STOP_DESCR": "12 AVE N", "DISTANCE_B": "0.175", "TIME_STOP": "N", "COMMENTS": "SHELTER VERIFIED ON 2011 PICTOMETRY", "TRANSFER_P": "N", "SHELTER": "Y", "ROUTESTOPN": "17-31", "CITY": "FARGO" }, "geometry": { "type": "Point", "coordinates": [ -96.829938591328244, 46.890271294928731 ] } },
{ "type": "Feature", "properties": { "OBJECTID_1": 21, "OBJECTID": 450, "ROUTE": "17", "STOP_NUMBE": null, "STREET": "3 AVE N", "STOP_DESCR": "20 ST N NEW LIFE CENTER", "DISTANCE_B": "0.1100.197", "TIME_STOP": "N", "COMMENTS": "SHELTER VERIFIED ON 2011 PICTOMETRY", "TRANSFER_P": "N", "SHELTER": "Y", "ROUTESTOPN": "17-46", "CITY": "FARGO" }, "geometry": { "type": "Point", "coordinates": [ -96.811609759862677, 46.879395370545915 ] } },
{ "type": "Feature", "properties": { "OBJECTID_1": 22, "OBJECTID": 547, "ROUTE": "14", "STOP_NUMBE": null, "STREET": "32 ST S", "STOP_DESCR": "MIDBLOCK SHELTER", "DISTANCE_B": "0.247", "TIME_STOP": "N", "COMMENTS": "VERIFIED SHELTER ON PICTOMETRY", "TRANSFER_P": "N", "SHELTER": "Y", "ROUTESTOPN": "25-15", "CITY": "FARGO" }, "geometry": { "type": "Point", "coordinates": [ -96.830556158717044, 46.835032698547742 ] } },
{ "type": "Feature", "properties": { "OBJECTID_1": 23, "OBJECTID": 549, "ROUTE": "14", "STOP_NUMBE": null, "STREET": "ESSENTIA HEALTH SHELTER", "STOP_DESCR": "ESSENTIA HEALTH SHELTER", "DISTANCE_B": "0.089", "TIME_STOP": "Y", "COMMENTS": "VERIFIED SHELTER ON PICTOMETRY", "TRANSFER_P": "N", "SHELTER": "Y", "ROUTESTOPN": "14-F", "CITY": "FARGO" }, "geometry": { "type": "Point", "coordinates": [ -96.827761106862226, 46.831990356542455 ] } },
{ "type": "Feature", "properties": { "OBJECTID_1": 24, "OBJECTID": 559, "ROUTE": "14", "STOP_NUMBE": null, "STREET": "UNIVERSITY DR S", "STOP_DESCR": "30 AVE S", "DISTANCE_B": "0.430", "TIME_STOP": "N", "COMMENTS": "SHELTER ON PICTOMETRY", "TRANSFER_P": "N", "SHELTER": "Y", "ROUTESTOPN": "25-27", "CITY": "FARGO" }, "geometry": { "type": "Point", "coordinates": [ -96.79866329626536, 46.834664913235493 ] } },
{ "type": "Feature", "properties": { "OBJECTID_1": 25, "OBJECTID": 645, "ROUTE": "13", "STOP_NUMBE": null, "STREET": "UNIVERSITY DR N", "STOP_DESCR": "19 AVE N FARGODOME SHELTER", "DISTANCE_B": "0.241", "TIME_STOP": "Y", "COMMENTS": "VERIFIED SHELTER ON PICTOMETRY", "TRANSFER_P": "N", "SHELTER": "Y", "ROUTESTOPN": "13A-28", "CITY": "FARGO" }, "geometry": { "type": "Point", "coordinates": [ -96.798188521273758, 46.904499843253298 ] } },
{ "type": "Feature", "properties": { "OBJECTID_1": 26, "OBJECTID": 712, "ROUTE": "14", "STOP_NUMBE": null, "STREET": "4 ST S", "STOP_DESCR": "9 AVE S", "DISTANCE_B": "0.070", "TIME_STOP": "N", "COMMENTS": "SHELTER ON PICTOMETRY", "TRANSFER_P": "N", "SHELTER": "Y", "ROUTESTOPN": "14W-9", "CITY": "FARGO" }, "geometry": { "type": "Point", "coordinates": [ -96.785877179027977, 46.86561933611199 ] } },
{ "type": "Feature", "properties": { "OBJECTID_1": 27, "OBJECTID": 731, "ROUTE": "14", "STOP_NUMBE": null, "STREET": "UNIVERSITY DR S", "STOP_DESCR": "KMART SHELTER", "DISTANCE_B": "0.027", "TIME_STOP": "Y", "COMMENTS": "SHELTER ON PICTOMETRY", "TRANSFER_P": "Y", "SHELTER": "Y", "ROUTESTOPN": "14W-28", "CITY": "FARGO" }, "geometry": { "type": "Point", "coordinates": [ -96.800954649678928, 46.84360137640769 ] } },
{ "type": "Feature", "properties": { "OBJECTID_1": 28, "OBJECTID": 837, "ROUTE": "5", "STOP_NUMBE": null, "STREET": "18 ST S", "STOP_DESCR": "BELSLY BLVD S SHELTER", "DISTANCE_B": "0.145", "TIME_STOP": "N", "COMMENTS": "SHELTER ON AERIAL", "TRANSFER_P": "N", "SHELTER": "Y", "ROUTESTOPN": "5-13", "CITY": "MOORHEAD" }, "geometry": { "type": "Point", "coordinates": [ -96.749823377297446, 46.84185542203533 ] } },
{ "type": "Feature", "properties": { "OBJECTID_1": 29, "OBJECTID": 847, "ROUTE": "5", "STOP_NUMBE": null, "STREET": "32 AVE S", "STOP_DESCR": "11 ST S LAKELAND MENTAL HEALTH SHELTER", "DISTANCE_B": "0.136", "TIME_STOP": "N", "COMMENTS": "SHELTER ON PICTOMETRY", "TRANSFER_P": "N", "SHELTER": "Y", "ROUTESTOPN": "5-23", "CITY": "MOORHEAD" }, "geometry": { "type": "Point", "coordinates": [ -96.762866295782189, 46.842021360920739 ] } },
{ "type": "Feature", "properties": { "OBJECTID_1": 30, "OBJECTID": 849, "ROUTE": "5", "STOP_NUMBE": null, "STREET": "9 ST S", "STOP_DESCR": "30 AVE S SHELTER", "DISTANCE_B": "0.380", "TIME_STOP": "Y", "COMMENTS": "SHELTER ON PICTOMETRY", "TRANSFER_P": "N", "SHELTER": "Y", "ROUTESTOPN": "5-25", "CITY": "MOORHEAD" }, "geometry": { "type": "Point", "coordinates": [ -96.765919004016368, 46.843870932217385 ] } },
{ "type": "Feature", "properties": { "OBJECTID_1": 31, "OBJECTID": 852, "ROUTE": "5", "STOP_NUMBE": null, "STREET": "7 ST S", "STOP_DESCR": "35 AVE S SHELTER", "DISTANCE_B": "0.181", "TIME_STOP": "Y", "COMMENTS": "SHELTER ON PICTOMETRY ACROSS STREET", "TRANSFER_P": "N", "SHELTER": "Y", "ROUTESTOPN": "5-28", "CITY": "MOORHEAD" }, "geometry": { "type": "Point", "coordinates": [ -96.769713911829697, 46.839176959250388 ] } },
{ "type": "Feature", "properties": { "OBJECTID_1": 32, "OBJECTID": 859, "ROUTE": "5", "STOP_NUMBE": null, "STREET": "5 ST S", "STOP_DESCR": "30 AVE S SHELTER", "DISTANCE_B": "0.408", "TIME_STOP": "N", "COMMENTS": "SHELTER ON PICTOMETRY ACROSS STREET", "TRANSFER_P": "N", "SHELTER": "Y", "ROUTESTOPN": "5-35", "CITY": "MOORHEAD" }, "geometry": { "type": "Point", "coordinates": [ -96.771558077737396, 46.844147897930384 ] } },
{ "type": "Feature", "properties": { "OBJECTID_1": 33, "OBJECTID": 921, "ROUTE": "4", "STOP_NUMBE": null, "STREET": "34 ST N", "STOP_DESCR": "OLD WALMART SHELTER", "DISTANCE_B": "0.158", "TIME_STOP": "N", "COMMENTS": "VERIFIED SHELTER ON AERIAL", "TRANSFER_P": "N", "SHELTER": "Y", "ROUTESTOPN": "7-35", "CITY": "DILWORTH" }, "geometry": { "type": "Point", "coordinates": [ -96.72527907916367, 46.878567493685978 ] } },
{ "type": "Feature", "properties": { "OBJECTID_1": 34, "OBJECTID": 929, "ROUTE": "7", "STOP_NUMBE": null, "STREET": "4 AVE N", "STOP_DESCR": "24 ST N SHELTER", "DISTANCE_B": "0.061", "TIME_STOP": "Y", "COMMENTS": "VERIFIED SHELTER ON AERIAL", "TRANSFER_P": "N", "SHELTER": "Y", "ROUTESTOPN": "7-43", "CITY": "MOORHEAD" }, "geometry": { "type": "Point", "coordinates": [ -96.74226413837863, 46.879335810851437 ] } },
{ "type": "Feature", "properties": { "OBJECTID_1": 35, "OBJECTID": 1042, "ROUTE": "13", "STOP_NUMBE": null, "STREET": "BROADWAY N", "STOP_DESCR": "NEW HORIZONS\/NORTHPORT HORNBACHER'S SHELTER", "DISTANCE_B": "0.087", "TIME_STOP": "Y", "COMMENTS": "SHELTER ON AERIAL", "TRANSFER_P": "N", "SHELTER": "Y", "ROUTESTOPN": "11-25", "CITY": "FARGO" }, "geometry": { "type": "Point", "coordinates": [ -96.787223801858374, 46.910701166396514 ] } },
{ "type": "Feature", "properties": { "OBJECTID_1": 36, "OBJECTID": 1068, "ROUTE": "11", "STOP_NUMBE": null, "STREET": "BROADWAY N", "STOP_DESCR": "17 AVE N WASHINGTON ELEM SHELTER", "DISTANCE_B": "0.121", "TIME_STOP": "N", "COMMENTS": "SHELTER ON AERIAL", "TRANSFER_P": "N", "SHELTER": "Y", "ROUTESTOPN": "11-52", "CITY": "FARGO" }, "geometry": { "type": "Point", "coordinates": [ -96.787622718280147, 46.90135022588867 ] } },
{ "type": "Feature", "properties": { "OBJECTID_1": 37, "OBJECTID": 1076, "ROUTE": "11", "STOP_NUMBE": null, "STREET": "BROADWAY N", "STOP_DESCR": "8 AVE N SANFORD CLINIC SOUTHBOUND SHELTER", "DISTANCE_B": "0.103", "TIME_STOP": "Y", "COMMENTS": "SHELTER ON AERIAL", "TRANSFER_P": "N", "SHELTER": "Y", "ROUTESTOPN": "11-60", "CITY": "FARGO" }, "geometry": { "type": "Point", "coordinates": [ -96.787902144251177, 46.884809290268173 ] } },
{ "type": "Feature", "properties": { "OBJECTID_1": 38, "OBJECTID": 1078, "ROUTE": "11", "STOP_NUMBE": null, "STREET": "BROADWAY N", "STOP_DESCR": "6 AVE N", "DISTANCE_B": "0.094", "TIME_STOP": "N", "COMMENTS": "SHELTER ON AERIAL", "TRANSFER_P": "N", "SHELTER": "Y", "ROUTESTOPN": "11-62", "CITY": "FARGO" }, "geometry": { "type": "Point", "coordinates": [ -96.787838722981689, 46.88231148998927 ] } },
{ "type": "Feature", "properties": { "OBJECTID_1": 39, "OBJECTID": 1105, "ROUTE": "11", "STOP_NUMBE": null, "STREET": "ELM ST N", "STOP_DESCR": "21 AVE N VA  HOSPITAL SHELTER", "DISTANCE_B": "0.124", "TIME_STOP": "Y", "COMMENTS": "SHELTER ON AERIAL", "TRANSFER_P": "N", "SHELTER": "Y", "ROUTESTOPN": "12-22", "CITY": "FARGO" }, "geometry": { "type": "Point", "coordinates": [ -96.776739451995738, 46.906245040164443 ] } },
{ "type": "Feature", "properties": { "OBJECTID_1": 40, "OBJECTID": 1172, "ROUTE": "15", "STOP_NUMBE": null, "STREET": "UNIVERSITY DR N", "STOP_DESCR": "8 AVE S FRASER SHELTER", "DISTANCE_B": "0.033", "TIME_STOP": "N", "COMMENTS": "SHELTER ON PICTOMETRY", "TRANSFER_P": "N", "SHELTER": "Y", "ROUTESTOPN": "15-16", "CITY": "FARGO" }, "geometry": { "type": "Point", "coordinates": [ -96.798487527033942, 46.867318656054735 ] } },
{ "type": "Feature", "properties": { "OBJECTID_1": 41, "OBJECTID": 1190, "ROUTE": "15", "STOP_NUMBE": null, "STREET": "13 AVE S", "STOP_DESCR": "25 ST S CVS SHELTER", "DISTANCE_B": "0.116", "TIME_STOP": "N", "COMMENTS": "BENCH AND SHELTER ON PICTOMETRY", "TRANSFER_P": "N", "SHELTER": "Y", "ROUTESTOPN": "15-34", "CITY": "FARGO" }, "geometry": { "type": "Point", "coordinates": [ -96.819129192364002, 46.861633437685924 ] } },
{ "type": "Feature", "properties": { "OBJECTID_1": 42, "OBJECTID": 1194, "ROUTE": "15", "STOP_NUMBE": null, "STREET": "13 AVE S", "STOP_DESCR": "WESTRAC DR S SHELTER", "DISTANCE_B": "0.111", "TIME_STOP": "Y", "COMMENTS": "BENCH AND SHELTER ON PICTOMETRY", "TRANSFER_P": "N", "SHELTER": "Y", "ROUTESTOPN": "15-38", "CITY": "FARGO" }, "geometry": { "type": "Point", "coordinates": [ -96.82984965165727, 46.86169156687761 ] } },
{ "type": "Feature", "properties": { "OBJECTID_1": 43, "OBJECTID": 1203, "ROUTE": "15", "STOP_NUMBE": null, "STREET": "47 ST S", "STOP_DESCR": "11 AVE S", "DISTANCE_B": "0.110", "TIME_STOP": "Y", "COMMENTS": "SHELTER ON PICTOMETRY", "TRANSFER_P": "N", "SHELTER": "Y", "ROUTESTOPN": "15-47", "CITY": "FARGO" }, "geometry": { "type": "Point", "coordinates": [ -96.864199207697581, 46.864012507237014 ] } },
{ "type": "Feature", "properties": { "OBJECTID_1": 44, "OBJECTID": 1209, "ROUTE": "15", "STOP_NUMBE": null, "STREET": "13 AVE S", "STOP_DESCR": "32 ST S JOB SERVICES SHELTER", "DISTANCE_B": "0.129", "TIME_STOP": "N", "COMMENTS": "SHELTER ON PICTOMETRY", "TRANSFER_P": "N", "SHELTER": "Y", "ROUTESTOPN": "15-53", "CITY": "FARGO" }, "geometry": { "type": "Point", "coordinates": [ -96.830412664058841, 46.861415734823169 ] } },
{ "type": "Feature", "properties": { "OBJECTID_1": 45, "OBJECTID": 1213, "ROUTE": "15", "STOP_NUMBE": null, "STREET": "13 AVE S", "STOP_DESCR": "23 ST S", "DISTANCE_B": "0.138", "TIME_STOP": "N", "COMMENTS": "SHELTER ON PICTOMETRY", "TRANSFER_P": "N", "SHELTER": "Y", "ROUTESTOPN": "15-57", "CITY": "FARGO" }, "geometry": { "type": "Point", "coordinates": [ -96.817473158519022, 46.861372753067513 ] } },
{ "type": "Feature", "properties": { "OBJECTID_1": 46, "OBJECTID": 1272, "ROUTE": "18", "STOP_NUMBE": null, "STREET": "9 AVE S", "STOP_DESCR": "SEHS\/ HUB SHELTER", "DISTANCE_B": "0.149", "TIME_STOP": "Y", "COMMENTS": "SHELTER ON PICTOMETRY", "TRANSFER_P": "N", "SHELTER": "Y", "ROUTESTOPN": "18-31", "CITY": "FARGO" }, "geometry": { "type": "Point", "coordinates": [ -96.822733725641399, 46.865692981215616 ] } },
{ "type": "Feature", "properties": { "OBJECTID_1": 47, "OBJECTID": 1277, "ROUTE": "18", "STOP_NUMBE": null, "STREET": "23 ST S", "STOP_DESCR": "6 AVE S COMMUNITY HOMES SHELTER", "DISTANCE_B": "0.072", "TIME_STOP": "N", "COMMENTS": "SHELTER ON PICTOMETRY", "TRANSFER_P": "N", "SHELTER": "Y", "ROUTESTOPN": "18-36", "CITY": "FARGO" }, "geometry": { "type": "Point", "coordinates": [ -96.817023135290739, 46.868562361008642 ] } },
{ "type": "Feature", "properties": { "OBJECTID_1": 48, "OBJECTID": 1289, "ROUTE": "14", "STOP_NUMBE": null, "STREET": "10 ST S", "STOP_DESCR": "CASS COURTHOUSE SHELTER", "DISTANCE_B": "0.032", "TIME_STOP": "Y", "COMMENTS": "SHELTER ON PICTOMETRY", "TRANSFER_P": "N", "SHELTER": "Y", "ROUTESTOPN": "18-48", "CITY": "FARGO" }, "geometry": { "type": "Point", "coordinates": [ -96.794335411275156, 46.872106689119548 ] } },
{ "type": "Feature", "properties": { "OBJECTID_1": 49, "OBJECTID": 1316, "ROUTE": "16", "STOP_NUMBE": null, "STREET": "17 AVE S", "STOP_DESCR": "ESSENTIA SHELTER NORTH", "DISTANCE_B": "0.099", "TIME_STOP": "Y", "COMMENTS": "SHELTER ON AERIAL", "TRANSFER_P": "N", "SHELTER": "Y", "ROUTESTOPN": "16-22", "CITY": "FARGO" }, "geometry": { "type": "Point", "coordinates": [ -96.797692935672458, 46.854420194633811 ] } },
{ "type": "Feature", "properties": { "OBJECTID_1": 50, "OBJECTID": 1366, "ROUTE": "16", "STOP_NUMBE": null, "STREET": "17 AVE S", "STOP_DESCR": "16 ST S LEWIS & CLARK ELEM", "DISTANCE_B": "0.071", "TIME_STOP": "N", "COMMENTS": "SHELTER ON PICTOMETRY", "TRANSFER_P": "N", "SHELTER": "Y", "ROUTESTOPN": "16-72", "CITY": "FARGO" }, "geometry": { "type": "Point", "coordinates": [ -96.806287020499411, 46.854237445598983 ] } },
{ "type": "Feature", "properties": { "OBJECTID_1": 51, "OBJECTID": 1417, "ROUTE": "4", "STOP_NUMBE": null, "STREET": "11 ST N", "STOP_DESCR": "8.5 AVE N CLAY COURTHOUSE SHELTER", "DISTANCE_B": "0.166", "TIME_STOP": "Y", "COMMENTS": "SHELTER ON AERIAL", "TRANSFER_P": "N", "SHELTER": "Y", "ROUTESTOPN": "4-21", "CITY": "MOORHEAD" }, "geometry": { "type": "Point", "coordinates": [ -96.762750598055774, 46.884034737869023 ] } },
{ "type": "Feature", "properties": { "OBJECTID_1": 52, "OBJECTID": 1430, "ROUTE": "4", "STOP_NUMBE": null, "STREET": "1 AVE N", "STOP_DESCR": "CHURCHES UNITED SHELTER", "DISTANCE_B": "0.259", "TIME_STOP": "Y", "COMMENTS": null, "TRANSFER_P": "N", "SHELTER": "Y", "ROUTESTOPN": "4-34", "CITY": "MOORHEAD" }, "geometry": { "type": "Point", "coordinates": [ -96.748076960214945, 46.875922252555796 ] } },
{ "type": "Feature", "properties": { "OBJECTID_1": 53, "OBJECTID": 1440, "ROUTE": "4", "STOP_NUMBE": null, "STREET": "8 AVE NW", "STOP_DESCR": "WALMART SHELTER", "DISTANCE_B": "0.751", "TIME_STOP": "Y", "COMMENTS": null, "TRANSFER_P": "Y", "SHELTER": "Y", "ROUTESTOPN": "4-44", "CITY": "DILWORTH" }, "geometry": { "type": "Point", "coordinates": [ -96.723223150369975, 46.882850115612598 ] } },
{ "type": "Feature", "properties": { "OBJECTID_1": 54, "OBJECTID": 1533, "ROUTE": "5", "STOP_NUMBE": null, "STREET": "28 AVE S", "STOP_DESCR": "M STATE SHELTER", "DISTANCE_B": "0.290", "TIME_STOP": "Y", "COMMENTS": "SHELTER ON AERIAL", "TRANSFER_P": "N", "SHELTER": "Y", "ROUTESTOPN": "5-VILLAGE LOOP-42", "CITY": "MOORHEAD" }, "geometry": { "type": "Point", "coordinates": [ -96.750880469227866, 46.847851479401221 ] } },
{ "type": "Feature", "properties": { "OBJECTID_1": 55, "OBJECTID": 1545, "ROUTE": "31", "STOP_NUMBE": null, "STREET": "17 AVE N", "STOP_DESCR": "ALBRECHT BLVD N FARGODOME SHELTER", "DISTANCE_B": null, "TIME_STOP": "N", "COMMENTS": "ADDED PER GREG 8\/10\/2011", "TRANSFER_P": null, "SHELTER": "Y", "ROUTESTOPN": "32-14", "CITY": "FARGO" }, "geometry": { "type": "Point", "coordinates": [ -96.803092421879199, 46.901057100842124 ] } },
{ "type": "Feature", "properties": { "OBJECTID_1": 56, "OBJECTID": 1546, "ROUTE": "32", "STOP_NUMBE": null, "STREET": "17 AVE N", "STOP_DESCR": "UNIVERSITY VILLAGE SHELTER", "DISTANCE_B": "0.087", "TIME_STOP": "Y", "COMMENTS": "SHELTER ON AERIAL\/PICTOMETRY", "TRANSFER_P": "N", "SHELTER": "Y", "ROUTESTOPN": "32-11", "CITY": "FARGO" }, "geometry": { "type": "Point", "coordinates": [ -96.796243372837694, 46.901236768884665 ] } },
{ "type": "Feature", "properties": { "OBJECTID_1": 57, "OBJECTID": 1547, "ROUTE": "15", "STOP_NUMBE": null, "STREET": "43 ST S", "STOP_DESCR": "13.5 AVE S TARGET SHELTER", "DISTANCE_B": "0.095", "TIME_STOP": "N", "COMMENTS": null, "TRANSFER_P": "N", "SHELTER": "Y", "ROUTESTOPN": "15-43", "CITY": "FARGO" }, "geometry": { "type": "Point", "coordinates": [ -96.853578753853867, 46.860219294221451 ] } },
{ "type": "Feature", "properties": { "OBJECTID_1": 58, "OBJECTID": 1549, "ROUTE": "31", "STOP_NUMBE": null, "STREET": "ALBRECHT BLVD N", "STOP_DESCR": "NDSU HIGH RISE SHELTER", "DISTANCE_B": "0.074", "TIME_STOP": "Y", "COMMENTS": null, "TRANSFER_P": "N", "SHELTER": "Y", "ROUTESTOPN": "35-6", "CITY": "FARGO" }, "geometry": { "type": "Point", "coordinates": [ -96.802973279556568, 46.896924497502141 ] } },
{ "type": "Feature", "properties": { "OBJECTID_1": 59, "OBJECTID": 1550, "ROUTE": "16", "STOP_NUMBE": null, "STREET": "17 AVE S", "STOP_DESCR": "ESSENTIA SHELTER SOUTH", "DISTANCE_B": "0.099", "TIME_STOP": "Y", "COMMENTS": "SHELTER ON AERIAL", "TRANSFER_P": "N", "SHELTER": "Y", "ROUTESTOPN": "16-22", "CITY": "FARGO" }, "geometry": { "type": "Point", "coordinates": [ -96.797316930217619, 46.854262911906268 ] } },
{ "type": "Feature", "properties": { "OBJECTID_1": 60, "OBJECTID": 1551, "ROUTE": "14", "STOP_NUMBE": null, "STREET": "33 ST S", "STOP_DESCR": "31 AVE S SHELTER", "DISTANCE_B": "0.247", "TIME_STOP": "N", "COMMENTS": "VERIFIED SHELTER ON PICTOMETRY", "TRANSFER_P": "N", "SHELTER": "Y", "ROUTESTOPN": "25-15", "CITY": "FARGO" }, "geometry": { "type": "Point", "coordinates": [ -96.832863913286062, 46.834760631928475 ] } },
{ "type": "Feature", "properties": { "OBJECTID_1": 61, "OBJECTID": 1553, "ROUTE": "2", "STOP_NUMBE": null, "STREET": "14 ST S", "STOP_DESCR": "MSUM SHELTER WEST", "DISTANCE_B": "0.261", "TIME_STOP": "N", "COMMENTS": "SHELTER ON AERIAL", "TRANSFER_P": "N", "SHELTER": "Y", "ROUTESTOPN": "2-22", "CITY": "MOORHEAD" }, "geometry": { "type": "Point", "coordinates": [ -96.762926388943882, 46.866528866840419 ] } },
{ "type": "Feature", "properties": { "OBJECTID_1": 62, "OBJECTID": 1554, "ROUTE": "3", "STOP_NUMBE": null, "STREET": "20 ST S", "STOP_DESCR": "14 AVE S MIDBLOCK SHELTER", "DISTANCE_B": "0.127", "TIME_STOP": "Y", "COMMENTS": null, "TRANSFER_P": "N", "SHELTER": "Y", "ROUTESTOPN": "3-41", "CITY": "MOORHEAD" }, "geometry": { "type": "Point", "coordinates": [ -96.747920251733504, 46.860806047749939 ] } },
{ "type": "Feature", "properties": { "OBJECTID_1": 63, "OBJECTID": 1557, "ROUTE": "11", "STOP_NUMBE": null, "STREET": "BROADWAY N", "STOP_DESCR": "15 AVE N SHELTER", "DISTANCE_B": "0.127", "TIME_STOP": "N", "COMMENTS": null, "TRANSFER_P": "N", "SHELTER": "Y", "ROUTESTOPN": "11-15", "CITY": "FARGO" }, "geometry": { "type": "Point", "coordinates": [ -96.787456420791145, 46.897375429974105 ] } },
{ "type": "Feature", "properties": { "OBJECTID_1": 64, "OBJECTID": 1558, "ROUTE": "11", "STOP_NUMBE": null, "STREET": "BROADWAY N", "STOP_DESCR": "19 AVE N FARGO NORTH HS SHELTER", "DISTANCE_B": "0.123", "TIME_STOP": "N", "COMMENTS": null, "TRANSFER_P": "N", "SHELTER": "Y", "ROUTESTOPN": "11-50", "CITY": "FARGO" }, "geometry": { "type": "Point", "coordinates": [ -96.787561111193426, 46.904348040239803 ] } },
{ "type": "Feature", "properties": { "OBJECTID_1": 65, "OBJECTID": 1559, "ROUTE": "32", "STOP_NUMBE": null, "STREET": "DAKOTA DR N", "STOP_DESCR": "16 ST N", "DISTANCE_B": "0.087", "TIME_STOP": "N", "COMMENTS": "SHELTER ON PIC, NOT NOTED IN TRIP SURVEY ON WRONG SIDE ST ON OLD MAP", "TRANSFER_P": "N", "SHELTER": "Y", "ROUTESTOPN": "32-28", "CITY": "FARGO" }, "geometry": { "type": "Point", "coordinates": [ -96.805962461328534, 46.88604396503036 ] } },
{ "type": "Feature", "properties": { "OBJECTID_1": 66, "OBJECTID": 1560, "ROUTE": "13", "STOP_NUMBE": null, "STREET": "12 AVE N", "STOP_DESCR": "UNIVERSITY DR N", "DISTANCE_B": "0.123", "TIME_STOP": "N", "COMMENTS": null, "TRANSFER_P": "N", "SHELTER": "Y", "ROUTESTOPN": "13B-6", "CITY": "FARGO" }, "geometry": { "type": "Point", "coordinates": [ -96.798535190947675, 46.890282216441705 ] } },
{ "type": "Feature", "properties": { "OBJECTID_1": 67, "OBJECTID": 1561, "ROUTE": "17", "STOP_NUMBE": null, "STREET": "12 ST N", "STOP_DESCR": "2 AVE N UNIVERSITY MANOR", "DISTANCE_B": "0.069", "TIME_STOP": "Y", "COMMENTS": null, "TRANSFER_P": "N", "SHELTER": "Y", "ROUTESTOPN": "17-51", "CITY": "FARGO" }, "geometry": { "type": "Point", "coordinates": [ -96.797116435896399, 46.878206807002591 ] } },
{ "type": "Feature", "properties": { "OBJECTID_1": 68, "OBJECTID": 1562, "ROUTE": "15", "STOP_NUMBE": null, "STREET": "1 AVE N", "STOP_DESCR": "12 ST N HOLIDAY STATION", "DISTANCE_B": "0.152", "TIME_STOP": "N", "COMMENTS": null, "TRANSFER_P": "N", "SHELTER": "Y", "ROUTESTOPN": "15-8", "CITY": "FARGO" }, "geometry": { "type": "Point", "coordinates": [ -96.79692905889452, 46.87752942890495 ] } },
{ "type": "Feature", "properties": { "OBJECTID_1": 69, "OBJECTID": 1563, "ROUTE": "15", "STOP_NUMBE": null, "STREET": "UNIVERSITY DR N", "STOP_DESCR": "3 AVE S BETHANY HOMES", "DISTANCE_B": "0.074", "TIME_STOP": "N", "COMMENTS": null, "TRANSFER_P": "N", "SHELTER": "Y", "ROUTESTOPN": "15-12", "CITY": "FARGO" }, "geometry": { "type": "Point", "coordinates": [ -96.798434669740217, 46.871947491617476 ] } },
{ "type": "Feature", "properties": { "OBJECTID_1": 70, "OBJECTID": 1564, "ROUTE": "18", "STOP_NUMBE": null, "STREET": "28 ST S", "STOP_DESCR": "7 AVE S TELEFORCE", "DISTANCE_B": "0.135", "TIME_STOP": "N", "COMMENTS": null, "TRANSFER_P": "N", "SHELTER": "Y", "ROUTESTOPN": "18-29", "CITY": "FARGO" }, "geometry": { "type": "Point", "coordinates": [ -96.824878933714615, 46.867466835886908 ] } },
{ "type": "Feature", "properties": { "OBJECTID_1": 71, "OBJECTID": 1565, "ROUTE": "14", "STOP_NUMBE": null, "STREET": "4 ST S", "STOP_DESCR": "6 AVE S PRAIRIE PSYCH\/ISLAND PARK SHELTER", "DISTANCE_B": "0.148", "TIME_STOP": "N", "COMMENTS": null, "TRANSFER_P": "N", "SHELTER": "Y", "ROUTESTOPN": "16-97", "CITY": "FARGO" }, "geometry": { "type": "Point", "coordinates": [ -96.785828137945501, 46.869335500792751 ] } },
{ "type": "Feature", "properties": { "OBJECTID_1": 72, "OBJECTID": 1566, "ROUTE": "13", "STOP_NUMBE": null, "STREET": "UNIVERSITY DR N", "STOP_DESCR": "SKILLS & TECHNOLOGY CENTER", "DISTANCE_B": "0.052", "TIME_STOP": "N", "COMMENTS": null, "TRANSFER_P": "N", "SHELTER": "Y", "ROUTESTOPN": "34-12", "CITY": "FARGO" }, "geometry": { "type": "Point", "coordinates": [ -96.798169126277131, 46.906169861514542 ] } },
{ "type": "Feature", "properties": { "OBJECTID_1": 73, "OBJECTID": 1567, "ROUTE": "14", "STOP_NUMBE": null, "STREET": "32 AVE S", "STOP_DESCR": "SANFORD SOUTHPOINTE SHELTER", "DISTANCE_B": "0.088", "TIME_STOP": "Y", "COMMENTS": null, "TRANSFER_P": "N", "SHELTER": "Y", "ROUTESTOPN": "25-21", "CITY": "FARGO" }, "geometry": { "type": "Point", "coordinates": [ -96.817587431029196, 46.83242885089421 ] } },
{ "type": "Feature", "properties": { "OBJECTID_1": 74, "OBJECTID": 1568, "ROUTE": "14", "STOP_NUMBE": null, "STREET": "UNIVERSITY DR S", "STOP_DESCR": "SANFORD\/ESSENTIA SHELTER", "DISTANCE_B": "0.094", "TIME_STOP": "Y", "COMMENTS": null, "TRANSFER_P": "N", "SHELTER": "Y", "ROUTESTOPN": "14W-47", "CITY": "FARGO" }, "geometry": { "type": "Point", "coordinates": [ -96.798322637203412, 46.852969986662522 ] } },
{ "type": "Feature", "properties": { "OBJECTID_1": 75, "OBJECTID": 1569, "ROUTE": "14", "STOP_NUMBE": null, "STREET": "15 ST S", "STOP_DESCR": "14 ST S", "DISTANCE_B": "0.135", "TIME_STOP": "N", "COMMENTS": null, "TRANSFER_P": "N", "SHELTER": "Y", "ROUTESTOPN": "14W-42", "CITY": "FARGO" }, "geometry": { "type": "Point", "coordinates": [ -96.801857696034418, 46.839250754396495 ] } },
{ "type": "Feature", "properties": { "OBJECTID_1": 76, "OBJECTID": 1570, "ROUTE": "14", "STOP_NUMBE": null, "STREET": "10 ST S", "STOP_DESCR": "8 AVE S", "DISTANCE_B": "0.068", "TIME_STOP": "N", "COMMENTS": null, "TRANSFER_P": "N", "SHELTER": "Y", "ROUTESTOPN": "14W-56", "CITY": "FARGO" }, "geometry": { "type": "Point", "coordinates": [ -96.794762708271378, 46.866625332365977 ] } },
{ "type": "Feature", "properties": { "OBJECTID_1": 77, "OBJECTID": 1571, "ROUTE": "11", "STOP_NUMBE": null, "STREET": "25TH AVE N", "STOP_DESCR": "BROADWAY N NORTHPORT HORNBACHER'S SHELTER", "DISTANCE_B": null, "TIME_STOP": "Y", "COMMENTS": null, "TRANSFER_P": "N", "SHELTER": "Y", "ROUTESTOPN": null, "CITY": "MOORHEAD" }, "geometry": { "type": "Point", "coordinates": [ -96.787151036876239, 46.909944111236804 ] } },
{ "type": "Feature", "properties": { "OBJECTID_1": 78, "OBJECTID": 1572, "ROUTE": "3", "STOP_NUMBE": null, "STREET": "4TH AVE S", "STOP_DESCR": "HIGH SCHOOL", "DISTANCE_B": null, "TIME_STOP": "Y", "COMMENTS": null, "TRANSFER_P": "N", "SHELTER": "Y", "ROUTESTOPN": null, "CITY": "MOORHEAD" }, "geometry": { "type": "Point", "coordinates": [ -96.742551542667599, 46.87140209120647 ] } },
{ "type": "Feature", "properties": { "OBJECTID_1": 79, "OBJECTID": 1573, "ROUTE": "3", "STOP_NUMBE": null, "STREET": "12TH AVE S", "STOP_DESCR": "34TH ST CIR S", "DISTANCE_B": null, "TIME_STOP": "Y", "COMMENTS": null, "TRANSFER_P": "N", "SHELTER": "Y", "ROUTESTOPN": null, "CITY": "MOORHEAD" }, "geometry": { "type": "Point", "coordinates": [ -96.726362407236422, 46.862026260266028 ] } },
{ "type": "Feature", "properties": { "OBJECTID_1": 80, "OBJECTID": 1576, "ROUTE": "16", "STOP_NUMBE": null, "STREET": "17TH AVE S", "STOP_DESCR": "35 ST S", "DISTANCE_B": null, "TIME_STOP": "N", "COMMENTS": null, "TRANSFER_P": "N", "SHELTER": "Y", "ROUTESTOPN": null, "CITY": "FARGO" }, "geometry": { "type": "Point", "coordinates": [ -96.838269519932354, 46.854209165238196 ] } },
{ "type": "Feature", "properties": { "OBJECTID_1": 81, "OBJECTID": 1577, "ROUTE": "16", "STOP_NUMBE": null, "STREET": "17TH AVE S", "STOP_DESCR": "EAST GATEWAY CIR S", "DISTANCE_B": null, "TIME_STOP": "N", "COMMENTS": null, "TRANSFER_P": "N", "SHELTER": "Y", "ROUTESTOPN": null, "CITY": "FARGO" }, "geometry": { "type": "Point", "coordinates": [ -96.821657419230348, 46.854171143231895 ] } },
{ "type": "Feature", "properties": { "OBJECTID_1": 82, "OBJECTID": 1578, "ROUTE": "32", "STOP_NUMBE": null, "STREET": "11TH AVE N", "STOP_DESCR": "18TH ST N", "DISTANCE_B": null, "TIME_STOP": "N", "COMMENTS": null, "TRANSFER_P": "N", "SHELTER": "Y", "ROUTESTOPN": null, "CITY": "FARGO" }, "geometry": { "type": "Point", "coordinates": [ -96.809073104451912, 46.888479969245033 ] } },
{ "type": "Feature", "properties": { "OBJECTID_1": 83, "OBJECTID": 1579, "ROUTE": "11", "STOP_NUMBE": null, "STREET": "BROADWAY N", "STOP_DESCR": "13 AVE N", "DISTANCE_B": null, "TIME_STOP": "N", "COMMENTS": null, "TRANSFER_P": "N", "SHELTER": "Y", "ROUTESTOPN": null, "CITY": "FARGO" }, "geometry": { "type": "Point", "coordinates": [ -96.787803705684368, 46.892912755371526 ] } },
{ "type": "Feature", "properties": { "OBJECTID_1": 84, "OBJECTID": 1581, "ROUTE": "16", "STOP_NUMBE": null, "STREET": "9TH AVE N", "STOP_DESCR": "42 ST S", "DISTANCE_B": null, "TIME_STOP": "N", "COMMENTS": null, "TRANSFER_P": "N", "SHELTER": "Y", "ROUTESTOPN": null, "CITY": "FARGO" }, "geometry": { "type": "Point", "coordinates": [ -96.85059797735498, 46.866704064435531 ] } },
{ "type": "Feature", "properties": { "OBJECTID_1": 85, "OBJECTID": 1583, "ROUTE": "23", "STOP_NUMBE": null, "STREET": "40TH AVE S", "STOP_DESCR": "45TH ST S HORNBACHER'S", "DISTANCE_B": null, "TIME_STOP": "Y", "COMMENTS": null, "TRANSFER_P": "N", "SHELTER": "Y", "ROUTESTOPN": null, "CITY": "FARGO" }, "geometry": { "type": "Point", "coordinates": [ -96.862931388799097, 46.818240090507345 ] } },
{ "type": "Feature", "properties": { "OBJECTID_1": 86, "OBJECTID": 1584, "ROUTE": "31", "STOP_NUMBE": null, "STREET": "NDSU RESEARCH PARK DR N", "STOP_DESCR": "NDSU RESEARCH & TECH PARK SHELTER", "DISTANCE_B": null, "TIME_STOP": "Y", "COMMENTS": null, "TRANSFER_P": "N", "SHELTER": "Y", "ROUTESTOPN": null, "CITY": "FARGO" }, "geometry": { "type": "Point", "coordinates": [ -96.806708054022621, 46.902867996477283 ] } },
{ "type": "Feature", "properties": { "OBJECTID_1": 87, "OBJECTID": 1585, "ROUTE": "31", "STOP_NUMBE": null, "STREET": "CENTENNIAL BLVD N", "STOP_DESCR": "NDSU STEVENS HALL SHELTER", "DISTANCE_B": null, "TIME_STOP": "Y", "COMMENTS": null, "TRANSFER_P": "N", "SHELTER": "Y", "ROUTESTOPN": "31-5", "CITY": "FARGO" }, "geometry": { "type": "Point", "coordinates": [ -96.804491369151506, 46.894192325139358 ] } },
{ "type": "Feature", "properties": { "OBJECTID_1": 88, "OBJECTID": 1587, "ROUTE": "16", "STOP_NUMBE": null, "STREET": "9TH AVE N", "STOP_DESCR": "43 ST S", "DISTANCE_B": null, "TIME_STOP": "N", "COMMENTS": null, "TRANSFER_P": "N", "SHELTER": "Y", "ROUTESTOPN": null, "CITY": "FARGO" }, "geometry": { "type": "Point", "coordinates": [ -96.854398952739075, 46.866598305007635 ] } },
{ "type": "Feature", "properties": { "OBJECTID_1": 89, "OBJECTID": 1588, "ROUTE": "23", "STOP_NUMBE": null, "STREET": "40TH AVE S", "STOP_DESCR": "VETERANS BLVD S", "DISTANCE_B": null, "TIME_STOP": "Y", "COMMENTS": null, "TRANSFER_P": "N", "SHELTER": "Y", "ROUTESTOPN": null, "CITY": "FARGO" }, "geometry": { "type": "Point", "coordinates": [ -96.882382054566108, 46.818288539187769 ] } },
{ "type": "Feature", "properties": { "OBJECTID_1": 90, "OBJECTID": 1589, "ROUTE": "32", "STOP_NUMBE": null, "STREET": "17 ST N", "STOP_DESCR": "12 AVE N CRIMINAL JUSTICE", "DISTANCE_B": null, "TIME_STOP": "Y", "COMMENTS": null, "TRANSFER_P": null, "SHELTER": "Y", "ROUTESTOPN": null, "CITY": "FARGO" }, "geometry": { "type": "Point", "coordinates": [ -96.807583613020682, 46.890218271709266 ] } },
{ "type": "Feature", "properties": { "OBJECTID_1": 91, "OBJECTID": 1590, "ROUTE": "31", "STOP_NUMBE": null, "STREET": "CENTENNIAL BLVD N", "STOP_DESCR": "NDSU WELLNESS SHELTER", "DISTANCE_B": null, "TIME_STOP": "Y", "COMMENTS": null, "TRANSFER_P": "N", "SHELTER": "Y", "ROUTESTOPN": null, "CITY": "FARGO" }, "geometry": { "type": "Point", "coordinates": [ -96.807581987731893, 46.894241299081315 ] } },
{ "type": "Feature", "properties": { "OBJECTID_1": 92, "OBJECTID": 1591, "ROUTE": "13", "STOP_NUMBE": null, "STREET": "ALBRECHT BLVD N", "STOP_DESCR": "CENTENNIAL BLVD N GEOSCIENCES", "DISTANCE_B": null, "TIME_STOP": null, "COMMENTS": null, "TRANSFER_P": "N", "SHELTER": "Y", "ROUTESTOPN": null, "CITY": "FARGO" }, "geometry": { "type": "Point", "coordinates": [ -96.802675561426426, 46.893900373168655 ] } },
{ "type": "Feature", "properties": { "OBJECTID_1": 93, "OBJECTID": 1596, "ROUTE": "13", "STOP_NUMBE": null, "STREET": "ADMINISTRATION AVE N", "STOP_DESCR": "NDSU MEMORIAL UNION HUB SHELTER", "DISTANCE_B": null, "TIME_STOP": "Y", "COMMENTS": null, "TRANSFER_P": "Y", "SHELTER": "Y", "ROUTESTOPN": null, "CITY": "FARGO" }, "geometry": { "type": "Point", "coordinates": [ -96.800419804611835, 46.891968784284195 ] } },
{ "type": "Feature", "properties": { "OBJECTID_1": 94, "OBJECTID": 1597, "ROUTE": "13", "STOP_NUMBE": null, "STREET": "UNIVERSITY DR N", "STOP_DESCR": "17 AVE N NDSU BSA SHELTER", "DISTANCE_B": null, "TIME_STOP": "Y", "COMMENTS": null, "TRANSFER_P": "N", "SHELTER": "Y", "ROUTESTOPN": null, "CITY": "FARGO" }, "geometry": { "type": "Point", "coordinates": [ -96.79818241350138, 46.900846809777896 ] } },
{ "type": "Feature", "properties": { "OBJECTID_1": 95, "OBJECTID": 1623, "ROUTE": "2", "STOP_NUMBE": null, "STREET": "14 ST S", "STOP_DESCR": "MSUM SHELTER EAST", "DISTANCE_B": "0.261", "TIME_STOP": "N", "COMMENTS": "SHELTER ON AERIAL", "TRANSFER_P": "N", "SHELTER": "Y", "ROUTESTOPN": "2-22", "CITY": "MOORHEAD" }, "geometry": { "type": "Point", "coordinates": [ -96.757309001078667, 46.866743794993134 ] } },
{ "type": "Feature", "properties": { "OBJECTID_1": 96, "OBJECTID": 1625, "ROUTE": "16", "STOP_NUMBE": null, "STREET": "4 ST S", "STOP_DESCR": "6 AVE S", "DISTANCE_B": null, "TIME_STOP": "N", "COMMENTS": null, "TRANSFER_P": "N", "SHELTER": "Y", "ROUTESTOPN": null, "CITY": null }, "geometry": { "type": "Point", "coordinates": [ -96.785606508676224, 46.868405729406497 ] } },
{ "type": "Feature", "properties": { "OBJECTID_1": 97, "OBJECTID": 1008, "ROUTE": "1", "STOP_NUMBE": null, "STREET": "5 ST S", "STOP_DESCR": "9 AVE S CONCORDIA SHELTER", "DISTANCE_B": "0.072", "TIME_STOP": "Y", "COMMENTS": "DISTANCE OFF SHELTER ON AERIAL", "TRANSFER_P": "N", "SHELTER": "Y", "ROUTESTOPN": "8-56", "CITY": "MOORHEAD" }, "geometry": { "type": "Point", "coordinates": [ -96.772301078292145, 46.865023808772435 ] } },
{ "type": "Feature", "properties": { "OBJECTID_1": 98, "OBJECTID": 72, "ROUTE": "34", "STOP_NUMBE": null, "STREET": "UNIVERSITY DR N", "STOP_DESCR": "NDSU NISKANEN SHELTER", "DISTANCE_B": "0.142", "TIME_STOP": "Y", "COMMENTS": "SHELTER ON PICTOMETRY", "TRANSFER_P": "N", "SHELTER": "Y", "ROUTESTOPN": "34-14", "CITY": "FARGO" }, "geometry": { "type": "Point", "coordinates": [ -96.797887802082499, 46.902935157540682 ] } },
{ "type": "Feature", "properties": { "OBJECTID_1": 99, "OBJECTID": 72, "ROUTE": "13U", "STOP_NUMBE": null, "STREET": "UNIVERSITY DR N", "STOP_DESCR": "NDSU NISKANEN SHELTER", "DISTANCE_B": "0.142", "TIME_STOP": "Y", "COMMENTS": "SHELTER ON PICTOMETRY", "TRANSFER_P": "N", "SHELTER": "Y", "ROUTESTOPN": "34-14", "CITY": "FARGO" }, "geometry": { "type": "Point", "coordinates": [ -96.797887802082499, 46.902935157540682 ] } },
{ "type": "Feature", "properties": { "OBJECTID_1": 100, "OBJECTID": 74, "ROUTE": "13U", "STOP_NUMBE": null, "STREET": "UNIVERSITY DR N", "STOP_DESCR": "15 AVE N NDSU BISON COURT SHELTER", "DISTANCE_B": "0.166", "TIME_STOP": "N", "COMMENTS": "SHELTER ON PICTOMETRY", "TRANSFER_P": "N", "SHELTER": "Y", "ROUTESTOPN": "34-16", "CITY": "FARGO" }, "geometry": { "type": "Point", "coordinates": [ -96.798222259669984, 46.897073034915358 ] } },
{ "type": "Feature", "properties": { "OBJECTID_1": 101, "OBJECTID": 74, "ROUTE": "33", "STOP_NUMBE": null, "STREET": "UNIVERSITY DR N", "STOP_DESCR": "15 AVE N NDSU BISON COURT SHELTER", "DISTANCE_B": "0.166", "TIME_STOP": "N", "COMMENTS": "SHELTER ON PICTOMETRY", "TRANSFER_P": "N", "SHELTER": "Y", "ROUTESTOPN": "34-16", "CITY": "FARGO" }, "geometry": { "type": "Point", "coordinates": [ -96.798222259669984, 46.897073034915358 ] } },
{ "type": "Feature", "properties": { "OBJECTID_1": 102, "OBJECTID": 74, "ROUTE": "34", "STOP_NUMBE": null, "STREET": "UNIVERSITY DR N", "STOP_DESCR": "15 AVE N NDSU BISON COURT SHELTER", "DISTANCE_B": "0.166", "TIME_STOP": "N", "COMMENTS": "SHELTER ON PICTOMETRY", "TRANSFER_P": "N", "SHELTER": "Y", "ROUTESTOPN": "34-16", "CITY": "FARGO" }, "geometry": { "type": "Point", "coordinates": [ -96.798222259669984, 46.897073034915358 ] } },
{ "type": "Feature", "properties": { "OBJECTID_1": 103, "OBJECTID": 76, "ROUTE": "13U", "STOP_NUMBE": null, "STREET": "UNIVERSITY DR N", "STOP_DESCR": "CENTENNIAL BLVD N SHELTER", "DISTANCE_B": "0.083", "TIME_STOP": "N", "COMMENTS": "SHELTER ON PICTOMETRY", "TRANSFER_P": "N", "SHELTER": "Y", "ROUTESTOPN": "34-18", "CITY": "FARGO" }, "geometry": { "type": "Point", "coordinates": [ -96.798246885732752, 46.894444571406147 ] } },
{ "type": "Feature", "properties": { "OBJECTID_1": 104, "OBJECTID": 76, "ROUTE": "33", "STOP_NUMBE": null, "STREET": "UNIVERSITY DR N", "STOP_DESCR": "CENTENNIAL BLVD N SHELTER", "DISTANCE_B": "0.083", "TIME_STOP": "N", "COMMENTS": "SHELTER ON PICTOMETRY", "TRANSFER_P": "N", "SHELTER": "Y", "ROUTESTOPN": "34-18", "CITY": "FARGO" }, "geometry": { "type": "Point", "coordinates": [ -96.798246885732752, 46.894444571406147 ] } },
{ "type": "Feature", "properties": { "OBJECTID_1": 105, "OBJECTID": 76, "ROUTE": "34", "STOP_NUMBE": null, "STREET": "UNIVERSITY DR N", "STOP_DESCR": "CENTENNIAL BLVD N SHELTER", "DISTANCE_B": "0.083", "TIME_STOP": "N", "COMMENTS": "SHELTER ON PICTOMETRY", "TRANSFER_P": "N", "SHELTER": "Y", "ROUTESTOPN": "34-18", "CITY": "FARGO" }, "geometry": { "type": "Point", "coordinates": [ -96.798246885732752, 46.894444571406147 ] } },
{ "type": "Feature", "properties": { "OBJECTID_1": 106, "OBJECTID": 99, "ROUTE": "34", "STOP_NUMBE": null, "STREET": "ALBRECHT BLVD N", "STOP_DESCR": "NDSU PAY LOT SHELTER", "DISTANCE_B": "0.093", "TIME_STOP": "Y", "COMMENTS": null, "TRANSFER_P": "N", "SHELTER": "Y", "ROUTESTOPN": "35-20", "CITY": "FARGO" }, "geometry": { "type": "Point", "coordinates": [ -96.802597418141687, 46.895306554335008 ] } },
{ "type": "Feature", "properties": { "OBJECTID_1": 107, "OBJECTID": 99, "ROUTE": "35", "STOP_NUMBE": null, "STREET": "ALBRECHT BLVD N", "STOP_DESCR": "NDSU PAY LOT SHELTER", "DISTANCE_B": "0.093", "TIME_STOP": "Y", "COMMENTS": null, "TRANSFER_P": "N", "SHELTER": "Y", "ROUTESTOPN": "35-20", "CITY": "FARGO" }, "geometry": { "type": "Point", "coordinates": [ -96.802597418141687, 46.895306554335008 ] } },
{ "type": "Feature", "properties": { "OBJECTID_1": 108, "OBJECTID": 108, "ROUTE": "13U", "STOP_NUMBE": null, "STREET": "12 AVE N", "STOP_DESCR": "14 ST N NDSU LIBRARY SHELTER", "DISTANCE_B": "0", "TIME_STOP": "Y", "COMMENTS": "SHLETER ON PICTOMETRY", "TRANSFER_P": "N", "SHELTER": "Y", "ROUTESTOPN": "35-29", "CITY": "FARGO" }, "geometry": { "type": "Point", "coordinates": [ -96.801327222261023, 46.89031167318285 ] } },
{ "type": "Feature", "properties": { "OBJECTID_1": 109, "OBJECTID": 108, "ROUTE": "32", "STOP_NUMBE": null, "STREET": "12 AVE N", "STOP_DESCR": "14 ST N NDSU LIBRARY SHELTER", "DISTANCE_B": "0", "TIME_STOP": "Y", "COMMENTS": "SHLETER ON PICTOMETRY", "TRANSFER_P": "N", "SHELTER": "Y", "ROUTESTOPN": "35-29", "CITY": "FARGO" }, "geometry": { "type": "Point", "coordinates": [ -96.801327222261023, 46.89031167318285 ] } },
{ "type": "Feature", "properties": { "OBJECTID_1": 110, "OBJECTID": 108, "ROUTE": "33", "STOP_NUMBE": null, "STREET": "12 AVE N", "STOP_DESCR": "14 ST N NDSU LIBRARY SHELTER", "DISTANCE_B": "0", "TIME_STOP": "Y", "COMMENTS": "SHLETER ON PICTOMETRY", "TRANSFER_P": "N", "SHELTER": "Y", "ROUTESTOPN": "35-29", "CITY": "FARGO" }, "geometry": { "type": "Point", "coordinates": [ -96.801327222261023, 46.89031167318285 ] } },
{ "type": "Feature", "properties": { "OBJECTID_1": 111, "OBJECTID": 125, "ROUTE": "8", "STOP_NUMBE": null, "STREET": "24 AVE S", "STOP_DESCR": "RIVERSHORE DR SHELTER", "DISTANCE_B": "0.122", "TIME_STOP": "N", "COMMENTS": "SHELTER ON AERIAL\/PICTOMETRY", "TRANSFER_P": "N", "SHELTER": "Y", "ROUTESTOPN": "1-17", "CITY": "MOORHEAD" }, "geometry": { "type": "Point", "coordinates": [ -96.771276925610479, 46.851468199739195 ] } },
{ "type": "Feature", "properties": { "OBJECTID_1": 112, "OBJECTID": 141, "ROUTE": "7", "STOP_NUMBE": null, "STREET": "11 ST S", "STOP_DESCR": "2 AVE S HORNBACHERS SHELTER", "DISTANCE_B": "0.141", "TIME_STOP": "Y", "COMMENTS": "SHELTER ON AERIAL", "TRANSFER_P": "N", "SHELTER": "Y", "ROUTESTOPN": "2-5", "CITY": "MOORHEAD" }, "geometry": { "type": "Point", "coordinates": [ -96.762874188252525, 46.87284209756865 ] } },
{ "type": "Feature", "properties": { "OBJECTID_1": 113, "OBJECTID": 149, "ROUTE": "2", "STOP_NUMBE": null, "STREET": "11 ST S", "STOP_DESCR": "28 AVE S MARRIOT SHELTER", "DISTANCE_B": "0.249", "TIME_STOP": "N", "COMMENTS": "SHELTER ON AERIAL FURTHER NORTH", "TRANSFER_P": "N", "SHELTER": "Y", "ROUTESTOPN": "2-13", "CITY": "MOORHEAD" }, "geometry": { "type": "Point", "coordinates": [ -96.762942947259333, 46.848239823179995 ] } },
{ "type": "Feature", "properties": { "OBJECTID_1": 114, "OBJECTID": 149, "ROUTE": "3", "STOP_NUMBE": null, "STREET": "11 ST S", "STOP_DESCR": "28 AVE S MARRIOT SHELTER", "DISTANCE_B": "0.249", "TIME_STOP": "N", "COMMENTS": "SHELTER ON AERIAL FURTHER NORTH", "TRANSFER_P": "N", "SHELTER": "Y", "ROUTESTOPN": "2-13", "CITY": "MOORHEAD" }, "geometry": { "type": "Point", "coordinates": [ -96.762942947259333, 46.848239823179995 ] } },
{ "type": "Feature", "properties": { "OBJECTID_1": 115, "OBJECTID": 149, "ROUTE": "5", "STOP_NUMBE": null, "STREET": "11 ST S", "STOP_DESCR": "28 AVE S MARRIOT SHELTER", "DISTANCE_B": "0.249", "TIME_STOP": "N", "COMMENTS": "SHELTER ON AERIAL FURTHER NORTH", "TRANSFER_P": "N", "SHELTER": "Y", "ROUTESTOPN": "2-13", "CITY": "MOORHEAD" }, "geometry": { "type": "Point", "coordinates": [ -96.762942947259333, 46.848239823179995 ] } },
{ "type": "Feature", "properties": { "OBJECTID_1": 116, "OBJECTID": 292, "ROUTE": "4", "STOP_NUMBE": null, "STREET": "US 10 FRONTAGE RD", "STOP_DESCR": "TARGET SHELTER", "DISTANCE_B": "0.115", "TIME_STOP": "Y", "COMMENTS": "VERIFIED SHELTER ON GOOGLE STREET VIEW", "TRANSFER_P": "Y", "SHELTER": "Y", "ROUTESTOPN": "3-30", "CITY": "MOORHEAD" }, "geometry": { "type": "Point", "coordinates": [ -96.728149624973824, 46.876178202608635 ] } },
{ "type": "Feature", "properties": { "OBJECTID_1": 117, "OBJECTID": 292, "ROUTE": "7", "STOP_NUMBE": null, "STREET": "US 10 FRONTAGE RD", "STOP_DESCR": "TARGET SHELTER", "DISTANCE_B": "0.115", "TIME_STOP": "Y", "COMMENTS": "VERIFIED SHELTER ON GOOGLE STREET VIEW", "TRANSFER_P": "Y", "SHELTER": "Y", "ROUTESTOPN": "3-30", "CITY": "MOORHEAD" }, "geometry": { "type": "Point", "coordinates": [ -96.728149624973824, 46.876178202608635 ] } },
{ "type": "Feature", "properties": { "OBJECTID_1": 118, "OBJECTID": 303, "ROUTE": "8", "STOP_NUMBE": null, "STREET": "20 ST S", "STOP_DESCR": "18 AVE S SHELTER", "DISTANCE_B": "0.128", "TIME_STOP": "N", "COMMENTS": null, "TRANSFER_P": "N", "SHELTER": "Y", "ROUTESTOPN": "3-43", "CITY": "MOORHEAD" }, "geometry": { "type": "Point", "coordinates": [ -96.747892405422775, 46.857025620192111 ] } },
{ "type": "Feature", "properties": { "OBJECTID_1": 119, "OBJECTID": 327, "ROUTE": "13U", "STOP_NUMBE": null, "STREET": "UNIVERSITY DR N", "STOP_DESCR": "7 AVE N SUNMART SHELTER", "DISTANCE_B": "0.186", "TIME_STOP": "N", "COMMENTS": "SHELTER ON AERIAL NOT MENTIONED ON TIME SHEETS", "TRANSFER_P": "N", "SHELTER": "Y", "ROUTESTOPN": "13B-11", "CITY": "FARGO" }, "geometry": { "type": "Point", "coordinates": [ -96.798277842753976, 46.883348095245395 ] } },
{ "type": "Feature", "properties": { "OBJECTID_1": 120, "OBJECTID": 327, "ROUTE": "33", "STOP_NUMBE": null, "STREET": "UNIVERSITY DR N", "STOP_DESCR": "7 AVE N SUNMART SHELTER", "DISTANCE_B": "0.186", "TIME_STOP": "N", "COMMENTS": "SHELTER ON AERIAL NOT MENTIONED ON TIME SHEETS", "TRANSFER_P": "N", "SHELTER": "Y", "ROUTESTOPN": "13B-11", "CITY": "FARGO" }, "geometry": { "type": "Point", "coordinates": [ -96.798277842753976, 46.883348095245395 ] } },
{ "type": "Feature", "properties": { "OBJECTID_1": 121, "OBJECTID": 353, "ROUTE": "13U", "STOP_NUMBE": null, "STREET": "10 ST N", "STOP_DESCR": "17 AVE N COLISEUM\/CURLING CLUB SHELTER", "DISTANCE_B": "0.585", "TIME_STOP": "N", "COMMENTS": null, "TRANSFER_P": "N", "SHELTER": "Y", "ROUTESTOPN": "13B-37", "CITY": "FARGO" }, "geometry": { "type": "Point", "coordinates": [ -96.793439504404745, 46.901375713414318 ] } },
{ "type": "Feature", "properties": { "OBJECTID_1": 122, "OBJECTID": 391, "ROUTE": "13U", "STOP_NUMBE": null, "STREET": "10 ST N", "STOP_DESCR": "12 AVE N SHELTER", "DISTANCE_B": "0.165", "TIME_STOP": "N", "COMMENTS": "SHELTER ON PICTOMETRY", "TRANSFER_P": "N", "SHELTER": "Y", "ROUTESTOPN": "33-30", "CITY": "FARGO" }, "geometry": { "type": "Point", "coordinates": [ -96.793637485422082, 46.89069522633276 ] } },
{ "type": "Feature", "properties": { "OBJECTID_1": 123, "OBJECTID": 391, "ROUTE": "33", "STOP_NUMBE": null, "STREET": "10 ST N", "STOP_DESCR": "12 AVE N SHELTER", "DISTANCE_B": "0.165", "TIME_STOP": "N", "COMMENTS": "SHELTER ON PICTOMETRY", "TRANSFER_P": "N", "SHELTER": "Y", "ROUTESTOPN": "33-30", "CITY": "FARGO" }, "geometry": { "type": "Point", "coordinates": [ -96.793637485422082, 46.89069522633276 ] } },
{ "type": "Feature", "properties": { "OBJECTID_1": 124, "OBJECTID": 645, "ROUTE": "13U", "STOP_NUMBE": null, "STREET": "UNIVERSITY DR N", "STOP_DESCR": "19 AVE N FARGODOME SHELTER", "DISTANCE_B": "0.241", "TIME_STOP": "Y", "COMMENTS": "VERIFIED SHELTER ON PICTOMETRY", "TRANSFER_P": "N", "SHELTER": "Y", "ROUTESTOPN": "13A-28", "CITY": "FARGO" }, "geometry": { "type": "Point", "coordinates": [ -96.798188521273758, 46.904499843253298 ] } },
{ "type": "Feature", "properties": { "OBJECTID_1": 125, "OBJECTID": 645, "ROUTE": "34", "STOP_NUMBE": null, "STREET": "UNIVERSITY DR N", "STOP_DESCR": "19 AVE N FARGODOME SHELTER", "DISTANCE_B": "0.241", "TIME_STOP": "Y", "COMMENTS": "VERIFIED SHELTER ON PICTOMETRY", "TRANSFER_P": "N", "SHELTER": "Y", "ROUTESTOPN": "13A-28", "CITY": "FARGO" }, "geometry": { "type": "Point", "coordinates": [ -96.798188521273758, 46.904499843253298 ] } },
{ "type": "Feature", "properties": { "OBJECTID_1": 126, "OBJECTID": 712, "ROUTE": "16", "STOP_NUMBE": null, "STREET": "4 ST S", "STOP_DESCR": "9 AVE S", "DISTANCE_B": "0.070", "TIME_STOP": "N", "COMMENTS": "SHELTER ON PICTOMETRY", "TRANSFER_P": "N", "SHELTER": "Y", "ROUTESTOPN": "14W-9", "CITY": "FARGO" }, "geometry": { "type": "Point", "coordinates": [ -96.785877179027977, 46.86561933611199 ] } },
{ "type": "Feature", "properties": { "OBJECTID_1": 127, "OBJECTID": 921, "ROUTE": "7", "STOP_NUMBE": null, "STREET": "34 ST N", "STOP_DESCR": "OLD WALMART SHELTER", "DISTANCE_B": "0.158", "TIME_STOP": "N", "COMMENTS": "VERIFIED SHELTER ON AERIAL", "TRANSFER_P": "N", "SHELTER": "Y", "ROUTESTOPN": "7-35", "CITY": "DILWORTH" }, "geometry": { "type": "Point", "coordinates": [ -96.72527907916367, 46.878567493685978 ] } },
{ "type": "Feature", "properties": { "OBJECTID_1": 128, "OBJECTID": 1172, "ROUTE": "18", "STOP_NUMBE": null, "STREET": "UNIVERSITY DR N", "STOP_DESCR": "8 AVE S FRASER SHELTER", "DISTANCE_B": "0.033", "TIME_STOP": "N", "COMMENTS": "SHELTER ON PICTOMETRY", "TRANSFER_P": "N", "SHELTER": "Y", "ROUTESTOPN": "15-16", "CITY": "FARGO" }, "geometry": { "type": "Point", "coordinates": [ -96.798487527033942, 46.867318656054735 ] } },
{ "type": "Feature", "properties": { "OBJECTID_1": 129, "OBJECTID": 1289, "ROUTE": "15", "STOP_NUMBE": null, "STREET": "10 ST S", "STOP_DESCR": "CASS COURTHOUSE SHELTER", "DISTANCE_B": "0.032", "TIME_STOP": "Y", "COMMENTS": "SHELTER ON PICTOMETRY", "TRANSFER_P": "N", "SHELTER": "Y", "ROUTESTOPN": "18-48", "CITY": "FARGO" }, "geometry": { "type": "Point", "coordinates": [ -96.794335411275156, 46.872106689119548 ] } },
{ "type": "Feature", "properties": { "OBJECTID_1": 130, "OBJECTID": 1289, "ROUTE": "18", "STOP_NUMBE": null, "STREET": "10 ST S", "STOP_DESCR": "CASS COURTHOUSE SHELTER", "DISTANCE_B": "0.032", "TIME_STOP": "Y", "COMMENTS": "SHELTER ON PICTOMETRY", "TRANSFER_P": "N", "SHELTER": "Y", "ROUTESTOPN": "18-48", "CITY": "FARGO" }, "geometry": { "type": "Point", "coordinates": [ -96.794335411275156, 46.872106689119548 ] } },
{ "type": "Feature", "properties": { "OBJECTID_1": 131, "OBJECTID": 1545, "ROUTE": "32", "STOP_NUMBE": null, "STREET": "17 AVE N", "STOP_DESCR": "ALBRECHT BLVD N FARGODOME SHELTER", "DISTANCE_B": null, "TIME_STOP": "N", "COMMENTS": "ADDED PER GREG 8\/10\/2011", "TRANSFER_P": null, "SHELTER": "Y", "ROUTESTOPN": "32-14", "CITY": "FARGO" }, "geometry": { "type": "Point", "coordinates": [ -96.803092421879199, 46.901057100842124 ] } },
{ "type": "Feature", "properties": { "OBJECTID_1": 132, "OBJECTID": 1545, "ROUTE": "35", "STOP_NUMBE": null, "STREET": "17 AVE N", "STOP_DESCR": "ALBRECHT BLVD N FARGODOME SHELTER", "DISTANCE_B": null, "TIME_STOP": "N", "COMMENTS": "ADDED PER GREG 8\/10\/2011", "TRANSFER_P": null, "SHELTER": "Y", "ROUTESTOPN": "32-14", "CITY": "FARGO" }, "geometry": { "type": "Point", "coordinates": [ -96.803092421879199, 46.901057100842124 ] } },
{ "type": "Feature", "properties": { "OBJECTID_1": 133, "OBJECTID": 1546, "ROUTE": "33", "STOP_NUMBE": null, "STREET": "17 AVE N", "STOP_DESCR": "UNIVERSITY VILLAGE SHELTER", "DISTANCE_B": "0.087", "TIME_STOP": "Y", "COMMENTS": "SHELTER ON AERIAL\/PICTOMETRY", "TRANSFER_P": "N", "SHELTER": "Y", "ROUTESTOPN": "32-11", "CITY": "FARGO" }, "geometry": { "type": "Point", "coordinates": [ -96.796243372837694, 46.901236768884665 ] } },
{ "type": "Feature", "properties": { "OBJECTID_1": 134, "OBJECTID": 1546, "ROUTE": "35", "STOP_NUMBE": null, "STREET": "17 AVE N", "STOP_DESCR": "UNIVERSITY VILLAGE SHELTER", "DISTANCE_B": "0.087", "TIME_STOP": "Y", "COMMENTS": "SHELTER ON AERIAL\/PICTOMETRY", "TRANSFER_P": "N", "SHELTER": "Y", "ROUTESTOPN": "32-11", "CITY": "FARGO" }, "geometry": { "type": "Point", "coordinates": [ -96.796243372837694, 46.901236768884665 ] } },
{ "type": "Feature", "properties": { "OBJECTID_1": 135, "OBJECTID": 1549, "ROUTE": "32", "STOP_NUMBE": null, "STREET": "ALBRECHT BLVD N", "STOP_DESCR": "NDSU HIGH RISE SHELTER", "DISTANCE_B": "0.074", "TIME_STOP": "Y", "COMMENTS": null, "TRANSFER_P": "N", "SHELTER": "Y", "ROUTESTOPN": "35-6", "CITY": "FARGO" }, "geometry": { "type": "Point", "coordinates": [ -96.802973279556568, 46.896924497502141 ] } },
{ "type": "Feature", "properties": { "OBJECTID_1": 136, "OBJECTID": 1549, "ROUTE": "35", "STOP_NUMBE": null, "STREET": "ALBRECHT BLVD N", "STOP_DESCR": "NDSU HIGH RISE SHELTER", "DISTANCE_B": "0.074", "TIME_STOP": "Y", "COMMENTS": null, "TRANSFER_P": "N", "SHELTER": "Y", "ROUTESTOPN": "35-6", "CITY": "FARGO" }, "geometry": { "type": "Point", "coordinates": [ -96.802973279556568, 46.896924497502141 ] } },
{ "type": "Feature", "properties": { "OBJECTID_1": 137, "OBJECTID": 1554, "ROUTE": "8", "STOP_NUMBE": null, "STREET": "20 ST S", "STOP_DESCR": "14 AVE S MIDBLOCK SHELTER", "DISTANCE_B": "0.127", "TIME_STOP": "Y", "COMMENTS": null, "TRANSFER_P": "N", "SHELTER": "Y", "ROUTESTOPN": "3-41", "CITY": "MOORHEAD" }, "geometry": { "type": "Point", "coordinates": [ -96.747920251733504, 46.860806047749939 ] } },
{ "type": "Feature", "properties": { "OBJECTID_1": 138, "OBJECTID": 1560, "ROUTE": "13U", "STOP_NUMBE": null, "STREET": "12 AVE N", "STOP_DESCR": "UNIVERSITY DR N", "DISTANCE_B": "0.123", "TIME_STOP": "N", "COMMENTS": null, "TRANSFER_P": "N", "SHELTER": "Y", "ROUTESTOPN": "13B-6", "CITY": "FARGO" }, "geometry": { "type": "Point", "coordinates": [ -96.798535190947675, 46.890282216441705 ] } },
{ "type": "Feature", "properties": { "OBJECTID_1": 139, "OBJECTID": 1560, "ROUTE": "33", "STOP_NUMBE": null, "STREET": "12 AVE N", "STOP_DESCR": "UNIVERSITY DR N", "DISTANCE_B": "0.123", "TIME_STOP": "N", "COMMENTS": null, "TRANSFER_P": "N", "SHELTER": "Y", "ROUTESTOPN": "13B-6", "CITY": "FARGO" }, "geometry": { "type": "Point", "coordinates": [ -96.798535190947675, 46.890282216441705 ] } },
{ "type": "Feature", "properties": { "OBJECTID_1": 140, "OBJECTID": 1562, "ROUTE": "18", "STOP_NUMBE": null, "STREET": "1 AVE N", "STOP_DESCR": "12 ST N HOLIDAY STATION", "DISTANCE_B": "0.152", "TIME_STOP": "N", "COMMENTS": null, "TRANSFER_P": "N", "SHELTER": "Y", "ROUTESTOPN": "15-8", "CITY": "FARGO" }, "geometry": { "type": "Point", "coordinates": [ -96.79692905889452, 46.87752942890495 ] } },
{ "type": "Feature", "properties": { "OBJECTID_1": 141, "OBJECTID": 1563, "ROUTE": "18", "STOP_NUMBE": null, "STREET": "UNIVERSITY DR N", "STOP_DESCR": "3 AVE S BETHANY HOMES", "DISTANCE_B": "0.074", "TIME_STOP": "N", "COMMENTS": null, "TRANSFER_P": "N", "SHELTER": "Y", "ROUTESTOPN": "15-12", "CITY": "FARGO" }, "geometry": { "type": "Point", "coordinates": [ -96.798434669740217, 46.871947491617476 ] } },
{ "type": "Feature", "properties": { "OBJECTID_1": 142, "OBJECTID": 1565, "ROUTE": "16", "STOP_NUMBE": null, "STREET": "4 ST S", "STOP_DESCR": "6 AVE S PRAIRIE PSYCH\/ISLAND PARK SHELTER", "DISTANCE_B": "0.148", "TIME_STOP": "N", "COMMENTS": null, "TRANSFER_P": "N", "SHELTER": "Y", "ROUTESTOPN": "16-97", "CITY": "FARGO" }, "geometry": { "type": "Point", "coordinates": [ -96.785828137945501, 46.869335500792751 ] } },
{ "type": "Feature", "properties": { "OBJECTID_1": 143, "OBJECTID": 1566, "ROUTE": "34", "STOP_NUMBE": null, "STREET": "UNIVERSITY DR N", "STOP_DESCR": "SKILLS & TECHNOLOGY CENTER", "DISTANCE_B": "0.052", "TIME_STOP": "N", "COMMENTS": null, "TRANSFER_P": "N", "SHELTER": "Y", "ROUTESTOPN": "34-12", "CITY": "FARGO" }, "geometry": { "type": "Point", "coordinates": [ -96.798169126277131, 46.906169861514542 ] } },
{ "type": "Feature", "properties": { "OBJECTID_1": 144, "OBJECTID": 1570, "ROUTE": "15", "STOP_NUMBE": null, "STREET": "10 ST S", "STOP_DESCR": "8 AVE S", "DISTANCE_B": "0.068", "TIME_STOP": "N", "COMMENTS": null, "TRANSFER_P": "N", "SHELTER": "Y", "ROUTESTOPN": "14W-56", "CITY": "FARGO" }, "geometry": { "type": "Point", "coordinates": [ -96.794762708271378, 46.866625332365977 ] } },
{ "type": "Feature", "properties": { "OBJECTID_1": 145, "OBJECTID": 1589, "ROUTE": "35", "STOP_NUMBE": null, "STREET": "17 ST N", "STOP_DESCR": "12 AVE N CRIMINAL JUSTICE", "DISTANCE_B": null, "TIME_STOP": "Y", "COMMENTS": null, "TRANSFER_P": null, "SHELTER": "Y", "ROUTESTOPN": null, "CITY": "FARGO" }, "geometry": { "type": "Point", "coordinates": [ -96.807583613020682, 46.890218271709266 ] } },
{ "type": "Feature", "properties": { "OBJECTID_1": 146, "OBJECTID": 1590, "ROUTE": "35", "STOP_NUMBE": null, "STREET": "CENTENNIAL BLVD N", "STOP_DESCR": "NDSU WELLNESS SHELTER", "DISTANCE_B": null, "TIME_STOP": "Y", "COMMENTS": null, "TRANSFER_P": "N", "SHELTER": "Y", "ROUTESTOPN": null, "CITY": "FARGO" }, "geometry": { "type": "Point", "coordinates": [ -96.807581987731893, 46.894241299081315 ] } },
{ "type": "Feature", "properties": { "OBJECTID_1": 147, "OBJECTID": 1591, "ROUTE": "32", "STOP_NUMBE": null, "STREET": "ALBRECHT BLVD N", "STOP_DESCR": "CENTENNIAL BLVD N GEOSCIENCES", "DISTANCE_B": null, "TIME_STOP": null, "COMMENTS": null, "TRANSFER_P": "N", "SHELTER": "Y", "ROUTESTOPN": null, "CITY": "FARGO" }, "geometry": { "type": "Point", "coordinates": [ -96.802675561426426, 46.893900373168655 ] } },
{ "type": "Feature", "properties": { "OBJECTID_1": 148, "OBJECTID": 1591, "ROUTE": "34", "STOP_NUMBE": null, "STREET": "ALBRECHT BLVD N", "STOP_DESCR": "CENTENNIAL BLVD N GEOSCIENCES", "DISTANCE_B": null, "TIME_STOP": null, "COMMENTS": null, "TRANSFER_P": "N", "SHELTER": "Y", "ROUTESTOPN": null, "CITY": "FARGO" }, "geometry": { "type": "Point", "coordinates": [ -96.802675561426426, 46.893900373168655 ] } },
{ "type": "Feature", "properties": { "OBJECTID_1": 149, "OBJECTID": 1591, "ROUTE": "35", "STOP_NUMBE": null, "STREET": "ALBRECHT BLVD N", "STOP_DESCR": "CENTENNIAL BLVD N GEOSCIENCES", "DISTANCE_B": null, "TIME_STOP": null, "COMMENTS": null, "TRANSFER_P": "N", "SHELTER": "Y", "ROUTESTOPN": null, "CITY": "FARGO" }, "geometry": { "type": "Point", "coordinates": [ -96.802675561426426, 46.893900373168655 ] } },
{ "type": "Feature", "properties": { "OBJECTID_1": 150, "OBJECTID": 1596, "ROUTE": "13U", "STOP_NUMBE": null, "STREET": "ADMINISTRATION AVE N", "STOP_DESCR": "NDSU MEMORIAL UNION HUB SHELTER", "DISTANCE_B": null, "TIME_STOP": "Y", "COMMENTS": null, "TRANSFER_P": "Y", "SHELTER": "Y", "ROUTESTOPN": null, "CITY": "FARGO" }, "geometry": { "type": "Point", "coordinates": [ -96.800419804611835, 46.891968784284195 ] } },
{ "type": "Feature", "properties": { "OBJECTID_1": 151, "OBJECTID": 1596, "ROUTE": "33", "STOP_NUMBE": null, "STREET": "ADMINISTRATION AVE N", "STOP_DESCR": "NDSU MEMORIAL UNION HUB SHELTER", "DISTANCE_B": null, "TIME_STOP": "Y", "COMMENTS": null, "TRANSFER_P": "Y", "SHELTER": "Y", "ROUTESTOPN": null, "CITY": "FARGO" }, "geometry": { "type": "Point", "coordinates": [ -96.800419804611835, 46.891968784284195 ] } },
{ "type": "Feature", "properties": { "OBJECTID_1": 152, "OBJECTID": 1596, "ROUTE": "34", "STOP_NUMBE": null, "STREET": "ADMINISTRATION AVE N", "STOP_DESCR": "NDSU MEMORIAL UNION HUB SHELTER", "DISTANCE_B": null, "TIME_STOP": "Y", "COMMENTS": null, "TRANSFER_P": "Y", "SHELTER": "Y", "ROUTESTOPN": null, "CITY": "FARGO" }, "geometry": { "type": "Point", "coordinates": [ -96.800419804611835, 46.891968784284195 ] } },
{ "type": "Feature", "properties": { "OBJECTID_1": 153, "OBJECTID": 1597, "ROUTE": "13U", "STOP_NUMBE": null, "STREET": "UNIVERSITY DR N", "STOP_DESCR": "17 AVE N NDSU BSA SHELTER", "DISTANCE_B": null, "TIME_STOP": "Y", "COMMENTS": null, "TRANSFER_P": "N", "SHELTER": "Y", "ROUTESTOPN": null, "CITY": "FARGO" }, "geometry": { "type": "Point", "coordinates": [ -96.79818241350138, 46.900846809777896 ] } },
{ "type": "Feature", "properties": { "OBJECTID_1": 154, "OBJECTID": 1597, "ROUTE": "33", "STOP_NUMBE": null, "STREET": "UNIVERSITY DR N", "STOP_DESCR": "17 AVE N NDSU BSA SHELTER", "DISTANCE_B": null, "TIME_STOP": "Y", "COMMENTS": null, "TRANSFER_P": "N", "SHELTER": "Y", "ROUTESTOPN": null, "CITY": "FARGO" }, "geometry": { "type": "Point", "coordinates": [ -96.79818241350138, 46.900846809777896 ] } },
{ "type": "Feature", "properties": { "OBJECTID_1": 155, "OBJECTID": 1597, "ROUTE": "34", "STOP_NUMBE": null, "STREET": "UNIVERSITY DR N", "STOP_DESCR": "17 AVE N NDSU BSA SHELTER", "DISTANCE_B": null, "TIME_STOP": "Y", "COMMENTS": null, "TRANSFER_P": "N", "SHELTER": "Y", "ROUTESTOPN": null, "CITY": "FARGO" }, "geometry": { "type": "Point", "coordinates": [ -96.79818241350138, 46.900846809777896 ] } },
{ "type": "Feature", "properties": { "OBJECTID_1": 156, "OBJECTID": 1008, "ROUTE": "8", "STOP_NUMBE": null, "STREET": "5 ST S", "STOP_DESCR": "9 AVE S CONCORDIA SHELTER", "DISTANCE_B": "0.072", "TIME_STOP": "Y", "COMMENTS": "DISTANCE OFF SHELTER ON AERIAL", "TRANSFER_P": "N", "SHELTER": "Y", "ROUTESTOPN": "8-56", "CITY": "MOORHEAD" }, "geometry": { "type": "Point", "coordinates": [ -96.772301078292145, 46.865023808772435 ] } },
{ "type": "Feature", "properties": { "OBJECTID_1": 157, "OBJECTID": 929, "ROUTE": "4", "STOP_NUMBE": null, "STREET": "4 AVE N", "STOP_DESCR": "24 ST N SHELTER", "DISTANCE_B": "0.061", "TIME_STOP": "Y", "COMMENTS": "VERIFIED SHELTER ON AERIAL", "TRANSFER_P": "N", "SHELTER": "Y", "ROUTESTOPN": "7-43", "CITY": "MOORHEAD" }, "geometry": { "type": "Point", "coordinates": [ -96.74226413837863, 46.879335810851437 ] } },
{ "type": "Feature", "properties": { "OBJECTID_1": 158, "OBJECTID": 134, "ROUTE": "8", "STOP_NUMBE": null, "STREET": "5 ST S", "STOP_DESCR": "2 AVE S", "DISTANCE_B": "0.161", "TIME_STOP": "N", "COMMENTS": "SHELTER ON AERIAL", "TRANSFER_P": "N", "SHELTER": "Y", "ROUTESTOPN": "8-26", "CITY": "MOORHEAD" }, "geometry": { "type": "Point", "coordinates": [ -96.772313345521255, 46.872563739294456 ] } },
{ "type": "Feature", "properties": { "OBJECTID_1": 159, "OBJECTID": 1440, "ROUTE": "6", "STOP_NUMBE": null, "STREET": "8 AVE NW", "STOP_DESCR": "WALMART SHELTER", "DISTANCE_B": null, "TIME_STOP": "Y", "COMMENTS": null, "TRANSFER_P": "Y", "SHELTER": "Y", "ROUTESTOPN": "4-44", "CITY": "DILWORTH" }, "geometry": { "type": "Point", "coordinates": [ -96.723223150369975, 46.882850115612598 ] } },
{ "type": "Feature", "properties": { "OBJECTID_1": 160, "OBJECTID": 921, "ROUTE": "6", "STOP_NUMBE": null, "STREET": "34 ST N", "STOP_DESCR": "OLD WALMART SHELTER", "DISTANCE_B": null, "TIME_STOP": "N", "COMMENTS": "VERIFIED SHELTER ON AERIAL", "TRANSFER_P": "N", "SHELTER": "Y", "ROUTESTOPN": "7-35", "CITY": "DILWORTH" }, "geometry": { "type": "Point", "coordinates": [ -96.72527907916367, 46.878567493685978 ] } },
{ "type": "Feature", "properties": { "OBJECTID_1": 161, "OBJECTID": 921, "ROUTE": "9", "STOP_NUMBE": null, "STREET": "34 ST N", "STOP_DESCR": "OLD WALMART SHELTER", "DISTANCE_B": "0.158", "TIME_STOP": "N", "COMMENTS": "VERIFIED SHELTER ON AERIAL", "TRANSFER_P": "N", "SHELTER": "Y", "ROUTESTOPN": "7-35", "CITY": "DILWORTH" }, "geometry": { "type": "Point", "coordinates": [ -96.72527907916367, 46.878567493685978 ] } },
{ "type": "Feature", "properties": { "OBJECTID_1": 162, "OBJECTID": 1440, "ROUTE": "9", "STOP_NUMBE": null, "STREET": "8 AVE NW", "STOP_DESCR": "WALMART SHELTER", "DISTANCE_B": "0.751", "TIME_STOP": "Y", "COMMENTS": null, "TRANSFER_P": "Y", "SHELTER": "Y", "ROUTESTOPN": "4-44", "CITY": "DILWORTH" }, "geometry": { "type": "Point", "coordinates": [ -96.723223150369975, 46.882850115612598 ] } },
{ "type": "Feature", "properties": { "OBJECTID_1": 163, "OBJECTID": 292, "ROUTE": "9", "STOP_NUMBE": null, "STREET": "US 10 FRONTAGE RD", "STOP_DESCR": "TARGET SHELTER", "DISTANCE_B": "0.115", "TIME_STOP": "Y", "COMMENTS": "VERIFIED SHELTER ON GOOGLE STREET VIEW", "TRANSFER_P": "Y", "SHELTER": "Y", "ROUTESTOPN": "3-30", "CITY": "MOORHEAD" }, "geometry": { "type": "Point", "coordinates": [ -96.728149624973824, 46.876178202608635 ] } }
]
}
